{"_id":{"$oid":"5876c50e48f2890019b2cec1"},"email":"matthew.leo.kaufman@gmail.com","name":"Matt Kaufman","cohort":"1608","program":"frontend","path":[{"id":"587821d30985eb0019e9da28","city":"honeoye falls","state":"","type":"","desc":"","lat":39.9129412,"lon":-104.7956055},{"lon":-75.91797380000001,"lat":42.09868669999999,"desc":"","type":"school","state":"ny","city":"binghamton","id":"5876ecf38a44170019e50b73"},{"lon":-77.6109219,"lat":43.16103,"desc":"Distech Systems","type":"work","state":"ny","city":"rochester","id":"5876c4f648f2890019b2cebd"},{"lon":-77.4088794,"lat":42.9825633,"desc":"Work","type":"work","state":"NY","city":"Victor","id":"5876eca98a44170019e50b72"}],"__v":4}
{"_id":{"$oid":"5876c57b48f2890019b2cec4"},"email":"nicknchambers@gmail.com","name":"Nick Chambers","cohort":"1608","program":"frontend","path":[{"lon":-70.996726,"lat":42.6611604,"desc":"","type":"","state":"MA","city":"Boxford","id":"5876c56948f2890019b2cec2"},{"lon":-107.8800667,"lat":37.27528,"desc":"","type":"","state":"CO","city":"Durango","id":"5876c57348f2890019b2cec3"},{"lon":-104.990251,"lat":39.7392358,"desc":"","type":"","state":"CO","city":"Denver","id":"5876c4fb48f2890019b2cebe"}],"__v":0}
{"_id":{"$oid":"5876c6db48f2890019b2ceca"},"email":"andrew.l.crist@gmail.com","name":"Andrew Crist","cohort":"1608","program":"frontend","path":[{"lon":-97.33005299999999,"lat":37.68717609999999,"desc":"Born here","type":"","state":"KS","city":"Wichita","id":"5876c68648f2890019b2cec5"},{"lon":-99.73314390000002,"lat":32.4487364,"desc":"College","type":"school","state":"TX","city":"Abilene","id":"5876c69d48f2890019b2cec6"},{"lon":-92.3340724,"lat":38.9517053,"desc":"Fifth year","type":"school","state":"MO","city":"Columbia","id":"5876c6ae48f2890019b2cec7"},{"lon":-90.3371889,"lat":38.6105426,"desc":"First prof. job","type":"work","state":"MO","city":"Saint Louis","id":"5876c6c248f2890019b2cec8"},{"lon":-101.8551665,"lat":33.5778631,"desc":"Moving up","type":"work","state":"TX","city":"Lubbock","id":"5876c6cd48f2890019b2cec9"},{"lon":-104.990251,"lat":39.7392358,"desc":"All the codez","type":"school","state":"CO","city":"Denver","id":"5876c4fb48f2890019b2cebe"}],"__v":0}
{"_id":{"$oid":"5877b2011d3021001908b86c"},"email":"lacey.knaff@gmail.com","name":"Lacey Knaff","imgsrc":"https://avatars.githubusercontent.com/u/16638363?v=3","cohort":"1608","program":"frontend","path":[{"lon":-104.1563253,"lat":47.7166836,"desc":"","type":"","state":"MT","city":"Sidney","id":"5877b1cb1d3021001908b865"},{"lon":-111.0429339,"lat":45.6769979,"desc":"","type":"","state":"MT","city":"Bozeman","id":"5877b1d71d3021001908b866"},{"lon":-106.6630437,"lat":35.2327544,"desc":"","type":"","state":"NM","city":"Rio Rancho","id":"5877b1dd1d3021001908b867"},{"lon":-122.8037102,"lat":45.48706199999999,"desc":"","type":"","state":"OR","city":"Beaverton","id":"5877b1e21d3021001908b868"},{"lon":-104.872758,"lat":39.0916586,"desc":"","type":"","state":"CO","city":"Monument","id":"5877b1e81d3021001908b869"},{"lon":-105.2705456,"lat":40.0149856,"desc":"","type":"","state":"CO","city":"Boulder","id":"5877b1f01d3021001908b86a"},{"lon":-116.2146068,"lat":43.6187102,"desc":"","type":"","state":"ID","city":"Boise","id":"5877b1f61d3021001908b86b"},{"lon":-104.990251,"lat":39.7392358,"desc":"","type":"","state":"CO","city":"Denver","id":"5876c4fb48f2890019b2cebe"}],"__v":0}
{"_id":{"$oid":"5877b2a21d3021001908b86d"},"email":"ryancwestlake@gmail.com","name":"Ryan Westlake","imgsrc":"https://avatars.githubusercontent.com/u/9679076?v=3","cohort":"1608","program":"frontend","path":[{"lon":-111.0429339,"lat":45.6769979,"desc":"","type":"","state":"MT","city":"Bozeman","id":"5877b1d71d3021001908b866"},{"lon":-116.2146068,"lat":43.6187102,"desc":"","type":"other","state":"ID","city":"Boise","id":"5877b1f61d3021001908b86b"}],"__v":0}
{"_id":{"$oid":"5877b3141d3021001908b870"},"email":"christine.c.gamble@gmail.com","name":"Christine Gamble","imgsrc":"https://avatars.githubusercontent.com/u/15853081?v=3","cohort":"1608","program":"frontend","path":[{"id":"5877b2f51d3021001908b86e","city":"Raleigh","state":"NC","type":"","desc":"","lat":35.7795897,"lon":-78.6381787},{"id":"5877b3671d3021001908b871","city":"Wheaton","state":"IL","type":"school","desc":"","lat":41.8661403,"lon":-88.1070127},{"id":"5877b2f51d3021001908b86e","city":"Raleigh","state":"NC","type":"work","desc":"","lat":35.7795897,"lon":-78.6381787},{"id":"5876c4fb48f2890019b2cebe","city":"Denver","state":"CO","type":"school","desc":"","lat":39.7392358,"lon":-104.990251},{"id":"5877b3a71d3021001908b872","city":"Washington","state":"DC","type":"work","desc":"","lat":38.9071923,"lon":-77.0368707},{"id":"5876c4fb48f2890019b2cebe","city":"Denver","state":"CO","type":"school","desc":"","lat":39.7392358,"lon":-104.990251}],"__v":1}
{"_id":{"$oid":"5877b8ef1d3021001908b878"},"email":"graham.nessler@gmail.com","name":"Graham Nessler","imgsrc":"https://avatars.githubusercontent.com/u/17103851?v=3","cohort":"1608","program":"frontend","path":[{"id":"5877cdccb0d88d001906580b","city":"Bryan","state":"","type":"","desc":"","lat":39.9129412,"lon":-104.7956055},{"id":"5877cdd0b0d88d001906580c","city":"Blacksburg","state":"","type":"","desc":"","lat":39.9129412,"lon":-104.7956055},{"id":"5877cdd2b0d88d001906580d","city":"Ann Arbor","state":"","type":"","desc":"","lat":39.9129412,"lon":-104.7956055},{"id":"5877ce03b0d88d001906580e","city":"Paris","state":"","country":"FR","type":"","desc":"","lat":48.856614,"lon":2.3522219},{"id":"5877b8df1d3021001908b877","city":"Boca Raton","state":"FL","country":"US","type":"","desc":"","lat":26.3683064,"lon":-80.1289321},{"id":"5877ce21b0d88d0019065811","city":"Denver","state":"","type":"","desc":"","lat":39.9129412,"lon":-104.7956055}],"__v":2}
{"_id":{"$oid":"5877b9891d3021001908b87d"},"email":"pilewski.alex@gmail.com","name":"Alex Pilewski","imgsrc":"https://avatars.githubusercontent.com/u/19851083?v=3","cohort":"1608","program":"frontend","path":[{"lon":-84.3879824,"lat":33.7489954,"desc":"","type":"","state":"GA","city":"Atlanta","id":"5877b95d1d3021001908b879"},{"lon":-72.64120129999999,"lat":42.3250896,"desc":"","type":"","state":"MA","city":"Northampton","id":"5877b96a1d3021001908b87a"},{"lon":-78.47667810000002,"lat":38.0293059,"desc":"","type":"","state":"VA","city":"Charlottesville","id":"5877b9731d3021001908b87b"},{"lon":-82.5514869,"lat":35.5950581,"desc":"","type":"","state":"NC","city":"Asheville","id":"5877b97a1d3021001908b87c"},{"lon":-104.990251,"lat":39.7392358,"desc":"","type":"","state":"CO","city":"Denver","id":"5876c4fb48f2890019b2cebe"}],"__v":0}
{"_id":{"$oid":"5877c1081d3021001908b882"},"email":"nathanielsmusic@gmail.com","name":"Nathaniel Foster","imgsrc":"https://avatars.githubusercontent.com/u/3099495?v=3","cohort":"Professor","program":"frontend","path":[{"lon":-85.7584557,"lat":38.2526647,"desc":"Bourbon, Horses, Bats!","type":"","state":"ky","city":"Louisville","id":"5877c0f01d3021001908b880"},{"lon":-104.990251,"lat":39.7392358,"desc":"","type":"work","state":"CO","city":"Denver","id":"5876c4fb48f2890019b2cebe"}],"__v":0}
{"_id":{"$oid":"5877c5631d3021001908b887"},"email":"kristen.burgess@doane.edu","name":"Kristen Burgess ","imgsrc":"https://avatars.githubusercontent.com/u/16327667?v=3","cohort":"1608","program":"frontend","path":[{"lon":-101.9293466,"lat":42.0232992,"desc":"","type":"","state":"NE","city":"Ashby","id":"5877c5371d3021001908b883"},{"lon":-96.9615141,"lat":40.6252173,"desc":"","type":"school","state":"NE","city":"Crete","id":"5877c5451d3021001908b884"},{"lon":-95.99798829999999,"lat":41.2523634,"desc":"","type":"work","state":"NE","city":"Omaha","id":"5877c5541d3021001908b885"},{"lon":-104.990251,"lat":39.7392358,"desc":"","type":"other","state":"CO ","city":"Denver","id":"5877c55f1d3021001908b886"}],"__v":0}
{"_id":{"$oid":"5877e5ef0028370019139715"},"email":"Jeff.Duke@Gmail.com","name":"Jeff Duke","imgsrc":"https://avatars.githubusercontent.com/u/17116730?v=3","cohort":"1606","program":"frontend","path":[{"lon":-105.0148322,"lat":39.7698122,"desc":"","type":"","country":"US","state":"80211","city":"Denver","id":"5877e5c70028370019139713"},{"lon":-104.8205283,"lat":39.9852617,"desc":"","type":"work","country":"US","state":"CO","city":"Brighton","id":"5877e5e10028370019139714"},{"lon":-104.990251,"lat":39.7392358,"desc":"Turing","type":"other","country":"US","state":"CO","city":"Denver","id":"5876c4fb48f2890019b2cebe"}],"__v":0}
{"_id":{"$oid":"5877e914002837001913971a"},"email":"nicky_bobby@icloud.com","name":"Nicholas","imgsrc":"https://avatars.githubusercontent.com/u/13855453?v=3","cohort":"1511","program":"backend","path":[{"lon":-74.1143091,"lat":40.6687141,"desc":"Born and Raised","type":"","country":"US","state":"NJ","city":"Bayonne","id":"5877e8f80028370019139717"},{"lon":-105.084423,"lat":40.5852602,"desc":"Semantic Arts","type":"work","country":"US","state":"CO","city":"Fort Collins","id":"5877e9120028370019139719"}],"__v":0}
{"_id":{"$oid":"5877eabd002837001913971d"},"email":"ejwill04@gmail.com","name":"Elijah Williams","imgsrc":"https://avatars.githubusercontent.com/u/19962100?v=3","cohort":"1610","program":"frontend","path":[],"__v":0}
{"_id":{"$oid":"5877eaf1002837001913971f"},"email":"ejwill04@gmail.com","name":"Elijah Williams","imgsrc":"https://avatars.githubusercontent.com/u/19962100?v=3","cohort":"1610","program":"frontend","path":[{"lon":-85.7584557,"lat":38.2526647,"desc":"","type":"","country":"US","state":"KY","city":"Louisville","id":"5877c0f01d3021001908b880"},{"lon":-85.7584557,"lat":38.2526647,"desc":"","type":"","country":"US","state":"KY","city":"Louisville","id":"5877c0f01d3021001908b880"}],"__v":0}
{"_id":{"$oid":"5877eb420028370019139721"},"email":"alex@casimircreative.com","name":"Alex Tideman","imgsrc":"https://avatars.githubusercontent.com/u/7967403?v=3","cohort":"1505","program":"backend","path":[{"lon":-93.2650108,"lat":44.977753,"desc":"","type":"","country":"US","state":"MN","city":"Minneapolis","id":"5877eb310028370019139720"},{"lon":-104.990251,"lat":39.7392358,"desc":"","type":"work","country":"US","state":"CO","city":"Denver","id":"5876c4fb48f2890019b2cebe"}],"__v":0}
{"_id":{"$oid":"5877eef40028370019139726"},"email":"seandrews11@gmail.com","name":"Stephanie Andrews","imgsrc":"https://avatars.githubusercontent.com/u/21284694?v=3","cohort":"1610","program":"frontend","path":[{"lon":-84.3879824,"lat":33.7489954,"desc":"","type":"","country":"US","state":"GA","city":"Atlanta","id":"5877b95d1d3021001908b879"},{"lon":-71.0588801,"lat":42.3600825,"desc":"","type":"school","country":"US","state":"MA","city":"Boston","id":"5877eeb40028370019139723"},{"lon":-122.4194155,"lat":37.7749295,"desc":"","type":"other","country":"US","state":"CA","city":"San Francisco","id":"5877eecf0028370019139724"},{"lon":-80.1917902,"lat":25.7616798,"desc":"","type":"other","country":"US","state":"FL","city":"Miami","id":"5877eedc0028370019139725"},{"lon":-104.990251,"lat":39.7392358,"desc":"","type":"other","country":"US","state":"CO","city":"Denver","id":"5876c4fb48f2890019b2cebe"}],"__v":0}
{"_id":{"$oid":"587801badac0df00194b6e1b"},"email":"turbocapslock@gmail.com","name":"Jeff Buss","imgsrc":"https://avatars.githubusercontent.com/u/11801235?v=3","cohort":"1610","program":"frontend","path":[{"lon":-93.2650108,"lat":44.977753,"desc":"Birth-2005","type":"","country":"US","state":"Minnesota","city":"Minneapolis","id":"58780106dac0df00194b6e18"},{"lon":-89.4012302,"lat":43.0730517,"desc":"2005-2007","type":"school","country":"US","state":"WI","city":"Madison ","id":"58780120dac0df00194b6e19"},{"lon":-105.2705456,"lat":40.0149856,"desc":"School and work - culinary and music industry","type":"school","country":"US","state":"CO","city":"Boulder","id":"5877b1f01d3021001908b86a"},{"lon":-93.2650108,"lat":44.977753,"desc":"Music industry","type":"work","country":"US","state":"MN","city":"Minneapolis","id":"5877eb310028370019139720"},{"lon":-87.6297982,"lat":41.8781136,"desc":"Music Industry","type":"work","country":"US","state":"IL","city":"Chicago","id":"5877b3031d3021001908b86f"},{"lon":-104.990251,"lat":39.7392358,"desc":"School and work - opened two food service concepts, then came to Turing","type":"school","country":"US","state":"CO","city":"Denver","id":"5876c4fb48f2890019b2cebe"}],"__v":0}
{"_id":{"$oid":"587803c1dac0df00194b6e26"},"email":"devinmarieb@gmail.com","name":"Devin Beliveau","imgsrc":"https://avatars.githubusercontent.com/u/20114388?v=3","cohort":"","program":"","path":[],"__v":0}
{"_id":{"$oid":"587803f0dac0df00194b6e28"},"email":"annastasia.psitos@gmail.com","name":"Annastasia Psitos","imgsrc":"https://avatars.githubusercontent.com/u/20409235?v=3","cohort":"1610","program":"frontend","path":[{"lon":-77.27165049999999,"lat":38.7934466,"desc":"Until 1999","type":"","country":"US","state":"VA","city":"Burke","id":"5878038adac0df00194b6e23"},{"lon":-77.4605399,"lat":38.3031837,"desc":"1999-2000","type":"","country":"US","state":"VA","city":"Fredericksburg","id":"58780398dac0df00194b6e24"},{"lon":-76.93776,"lat":38.9896967,"desc":"2000-2004","type":"school","country":"US","state":"MD","city":"College Park","id":"587803b3dac0df00194b6e25"},{"lon":-105.2705456,"lat":40.0149856,"desc":"Grad School 2005-2008","type":"school","country":"US","state":"CO","city":"Boulder","id":"5877b1f01d3021001908b86a"},{"lon":-104.990251,"lat":39.7392358,"desc":"2010-Present","type":"work","country":"US","state":"CO","city":"Denver","id":"5876c4fb48f2890019b2cebe"}],"__v":0}
{"_id":{"$oid":"587803f3dac0df00194b6e29"},"email":"devinmarieb@gmail.com","name":"Devin Beliveau","imgsrc":"https://avatars.githubusercontent.com/u/20114388?v=3","cohort":"1610","program":"frontend","path":[{"lon":153.0251235,"lat":-27.4697707,"desc":"college 2007","type":"school","country":"AU","state":"","city":"Brisbane","id":"587803efdac0df00194b6e27"}],"__v":0}
{"_id":{"$oid":"5878222b0985eb0019e9da2a"},"email":"sljohnson32@gmail.com","name":"Sam","imgsrc":"https://avatars.githubusercontent.com/u/20445038?v=3","cohort":"1610","program":"frontend","path":[{"id":"5878229b0985eb0019e9da2c","city":"London","state":"","country":"GB","type":"school","desc":"","lat":51.5073509,"lon":-0.1277583},{"id":"587822ad0985eb0019e9da2d","city":"Hartford","state":"CT","country":"US","type":"school","desc":"","lat":41.76371109999999,"lon":-72.6850932}],"__v":1}
{"_id":{"$oid":"5878222d0985eb0019e9da2b"},"email":"sljohnson32@gmail.com","name":"Sam","imgsrc":"https://avatars.githubusercontent.com/u/20445038?v=3","cohort":"1610","program":"","path":[{"lon":-104.990251,"lat":39.7392358,"desc":"","type":"","country":"US","state":"CO","city":"Denver","id":"5876c4fb48f2890019b2cebe"},{"lon":-74.0059413,"lat":40.7127837,"desc":"","type":"work","country":"US","state":"NY","city":"New York City","id":"587822160985eb0019e9da29"}],"__v":0}
{"_id":{"$oid":"587825b20985eb0019e9da2f"},"email":"nicholasmartinez@gmail.com","name":"Nicholas Alexander Martinez","imgsrc":"https://avatars.githubusercontent.com/u/17070891?v=3","cohort":"1608","program":"backend","path":[{"lon":-111.1175767,"lat":32.26256560000001,"desc":"","type":"","country":"US","state":"85745","city":"Tucson","id":"587825b00985eb0019e9da2e"}],"__v":0}
{"_id":{"$oid":"587826a80985eb0019e9da33"},"email":"rsbarbo@gmail.com","name":"Raphael Barbo","imgsrc":"https://avatars.githubusercontent.com/u/14164092?v=3","cohort":"1606","program":"backend","path":[{"lon":-46.3288865,"lat":-23.9678823,"desc":"","type":"other","country":"BR","state":"","city":"Santos","id":"587826570985eb0019e9da30"},{"lon":-105.0002242,"lat":39.7541032,"desc":"","type":"school","country":"US","state":"80202","city":"Denver","id":"587826990985eb0019e9da32"}],"__v":0}
{"_id":{"$oid":"58783b3d0985eb0019e9da37"},"email":"gprocell927@gmail.com","name":"Gabi Procell","imgsrc":"https://avatars.githubusercontent.com/u/18383962?v=3","cohort":"1608","program":"","path":[{"lon":-89.03177649999999,"lat":42.5083482,"desc":"","type":"","country":"US","state":"WI","city":"Beloit","id":"58783b160985eb0019e9da34"}],"__v":0}
{"_id":{"$oid":"58783fc80985eb0019e9da3a"},"email":"stephanielague@gmail.com","name":"Stephanie Bentley ","imgsrc":"https://avatars.githubusercontent.com/u/21252193?v=3","cohort":"1701","program":"backend","path":[],"__v":0}
{"_id":{"$oid":"587853a80985eb0019e9da3e"},"email":"hello@dangrund.com","name":"Dan Grund","imgsrc":"https://avatars.githubusercontent.com/u/20474299?v=3","cohort":"1610","program":"frontend","path":[{"lon":-79.3831843,"lat":43.653226,"desc":"","type":"","country":"CA","state":"","city":"Toronto","id":"587853660985eb0019e9da3b"},{"lon":-104.9710123,"lat":39.73274600000001,"desc":"","type":"hometown","country":"US","state":"80218","city":"Denver","id":"5878537d0985eb0019e9da3c"},{"lon":-111.4979729,"lat":40.6460622,"desc":"","type":"work","country":"US","state":"UT","city":"Park City","id":"5878539d0985eb0019e9da3d"}],"__v":0}
{"_id":{"$oid":"58794819e1099300191b3c0b"},"email":"vvasys@gmail.com","name":"Victoria Vasys","imgsrc":"https://avatars.githubusercontent.com/u/10079657?v=3","cohort":"1701","program":"backend","path":[{"lon":-89.4012302,"lat":43.0730517,"desc":"","type":"","country":"US","state":"WI","city":"Madison","id":"587947b9e1099300191b3c09"},{"lon":-104.990251,"lat":39.7392358,"desc":"","type":"school","country":"US","state":"CO","city":"Denver","id":"5876c4fb48f2890019b2cebe"},{"lon":25.2796514,"lat":54.6871555,"desc":"","type":"other","country":"LT","state":"","city":"Vilnius","id":"58794809e1099300191b3c0a"}],"__v":0}
{"_id":{"$oid":"58794830e1099300191b3c0c"},"email":"vvasys@gmail.com","name":"Victoria Vasys","imgsrc":"https://avatars.githubusercontent.com/u/10079657?v=3","cohort":"1701","program":"backend","path":[{"lon":-89.4012302,"lat":43.0730517,"desc":"","type":"","country":"US","state":"WI","city":"Madison","id":"587947b9e1099300191b3c09"},{"lon":-104.990251,"lat":39.7392358,"desc":"","type":"school","country":"US","state":"CO","city":"Denver","id":"5876c4fb48f2890019b2cebe"},{"lon":25.2796514,"lat":54.6871555,"desc":"","type":"other","country":"LT","state":"","city":"Vilnius","id":"58794809e1099300191b3c0a"}],"__v":0}
{"_id":{"$oid":"587964c5aab15800190310cc"},"email":"glassjoseph@gmail.com","name":"glassjoseph@gmail.com","imgsrc":"https://avatars.githubusercontent.com/u/17987273?v=3","cohort":"1701","program":"backend","path":[{"lon":-78.47667810000002,"lat":38.0293059,"desc":"","type":"school","country":"US","state":"VA","city":"Charlottesville","id":"5877b9731d3021001908b87b"}],"__v":0}
{"_id":{"$oid":"587e8d1defa3560019ee0a6c"},"email":"kinanwhyte@gmail.com","name":"Kinan Whyte","imgsrc":"https://avatars.githubusercontent.com/u/13802107?v=3","cohort":"1608","program":"frontend","path":[],"__v":0}
{"_id":{"$oid":"5884f68ecf707500196bc49a"},"email":"CarmerAndrew@gmail.com","name":"Andrew Carmer","imgsrc":"https://avatars.githubusercontent.com/u/9501766?v=3","cohort":"1502","program":"backend","path":[{"lon":-86.15861559999999,"lat":41.6619927,"desc":"","type":"","country":"US","state":"In","city":"Mishawaka","id":"5884f67acf707500196bc499"},{"lon":-104.990251,"lat":39.7392358,"desc":"","type":"other","country":"US","state":"Colorado","city":"denver","id":"587812730985eb0019e9da25"}],"__v":0}
